{"html_attributions": [], "next_page_token": "ATtYBwJsxnJvPL31ChBsWBWyFPBusWJoUZRAQ1R5nk-z848ALf68VmZh4t3jh5Ivjcqi_htBXAR13DWUqYrdrEi_z35hTTcyqiHrmbAsztpT0WQ9y5vvoQyHZmcZ4rfo_WqBtIiHTU7tR2cKGcvB8X3OqDds2J-6xL13R0q-NhKC6cVDQFEOR4rb-KzLsDXhScorUHJX4GdHiOZbdAhBrSwXX8UpBMpjU92-Pss8jLCKXWNTm3f1Jt-USb_elyg6GJB2c9WRr-IUN--ZEBOWelqA9qZgEDyotnX-Yuzw0aS2rPvrJhWpvIop2oALRbJer_95CW4p_CQofxiq00HOc_tt9UYhEzeeM_9sb8MbRrl9oaflHy7NvIiatvO8qjT09H0ZQXF8s2Rbh46nnFyoumC82a-SO7dUounfa6IGwnTa9-9Uz9JGCq6uPYtjR1jb", "results": [{"business_status": "OPERATIONAL", "geometry": {"location": {"lat": 40.7752711, "lng": -73.9633994}, "viewport": {"northeast": {"lat": 40.77656848029149, "lng": -73.9620792697085}, "southwest": {"lat": 40.7738705197085, "lng": -73.96477723029152}}}, "icon": "https://maps.gstatic.com/mapfiles/place_api/icons/v1/png_71/lodging-71.png", "name": "The Mark Hotel", "opening_hours": {"open_now": true}, "photos": [{"height": 3403, "html_attributions": ["<a href=\"https://maps.google.com/maps/contrib/113932043824166121037\">The Mark Hotel</a>"], "photo_reference": "ATtYBwLUW8VDv--7bI3PVzU6HDX_xUs3ckNmQ-cIsgOhurFLfPA_Nd1yeZvLHSK7K6EEJt72JFodOgafMyJap6e4fb5knNU2LBMKQiwuUgb5MDxuKHkUvKNSZI0TbRLu0PG9Ibr7jB_hhumI-vQi7i975xPQsm7i4VVcprUHyXVi2Np3MhWW", "width": 5026}], "place_id": "ChIJXYOiRJRYwokRm1i3c9R6WDA", "plus_code": {"compound_code": "Q2GP+4J New York, NY, USA", "global_code": "87G8Q2GP+4J"}, "rating": 4.5, "reference": "ChIJXYOiRJRYwokRm1i3c9R6WDA", "scope": "GOOGLE", "types": ["lodging", "restaurant", "food", "point_of_interest", "establishment"], "user_ratings_total": 610, "vicinity": "25 East 77th Street, New York"}, {"business_status": "OPERATIONAL", "geometry": {"location": {"lat": 40.76573249999999, "lng": -73.9692262}, "viewport": {"northeast": {"lat": 40.7671667302915, "lng": -73.96782901970849}, "southwest": {"lat": 40.7644687697085, "lng": -73.97052698029151}}}, "icon": "https://maps.gstatic.com/mapfiles/place_api/icons/v1/png_71/lodging-71.png", "name": "The Lowell Hotel", "opening_hours": {"open_now": true}, "photos": [{"height": 3456, "html_attributions": ["<a href=\"https://maps.google.com/maps/contrib/109242289716376687889\">The Lowell Hotel</a>"], "photo_reference": "ATtYBwIb_Lu9_yPZPnrFlG2i12iLGV3TGUf-_47DLTWe-JXEaMqlwYypZSxVtS2LMiD6K4RhKdv-oO8Tgifws6_u5M3soLYCfzeB88GmnJJZhx7PV1NEIHkaXv9hyZ4cUbzgfX6RMQ80eMlvtkjrJaQvxn5_O94kgEpgsJDTE2cbcZCETaMe", "width": 5184}], "place_id": "ChIJb9nOTe5YwokR5og3CprlOX4", "plus_code": {"compound_code": "Q28J+78 New York, NY, USA", "global_code": "87G8Q28J+78"}, "price_level": 3, "rating": 4.6, "reference": "ChIJb9nOTe5YwokR5og3CprlOX4", "scope": "GOOGLE", "types": ["night_club", "lodging", "bar", "restaurant", "food", "point_of_interest", "establishment"], "user_ratings_total": 258, "vicinity": "28 East 63rd Street, New York"}, {"business_status": "OPERATIONAL", "geometry": {"location": {"lat": 40.7557052, "lng": -73.981849}, "viewport": {"northeast": {"lat": 40.7572832302915, "lng": -73.9803626697085}, "southwest": {"lat": 40.7545852697085, "lng": -73.9830606302915}}}, "icon": "https://maps.gstatic.com/mapfiles/place_api/icons/v1/png_71/lodging-71.png", "name": "Sofitel New York", "photos": [{"height": 683, "html_attributions": ["<a href=\"https://maps.google.com/maps/contrib/103459388932264757090\">Sofitel New York</a>"], "photo_reference": "ATtYBwIvzlCxSkpOHti7r87ynj5z6thRL3Y03Ymifnqf0djsNhmuBBBA4u0LVzjtxFsXiRA3gSP545N0swlQ68tQgx1dzg88P417dfnbv7ZD-7nFR00iZpuMlDb1GsPQ29OAhFP1Bx8-0LzW6zApA6GrJYgwOQmC6tDzkkFQsbS4jpuVPDWY", "width": 1024}], "place_id": "ChIJ5Zpl7_9YwokRFePhP7971nc", "plus_code": {"compound_code": "Q249+77 New York, NY, USA", "global_code": "87G8Q249+77"}, "price_level": 3, "rating": 4.5, "reference": "ChIJ5Zpl7_9YwokRFePhP7971nc", "scope": "GOOGLE", "types": ["lodging", "bar", "restaurant", "food", "point_of_interest", "establishment"], "user_ratings_total": 1479, "vicinity": "45 West 44th Street, New York"}, {"business_status": "OPERATIONAL", "geometry": {"location": {"lat": 40.7598237, "lng": -73.996455}, "viewport": {"northeast": {"lat": 40.7612507302915, "lng": -73.99500976970849}, "southwest": {"lat": 40.7585527697085, "lng": -73.99770773029151}}}, "icon": "https://maps.gstatic.com/mapfiles/place_api/icons/v1/png_71/lodging-71.png", "name": "The Out Hotel", "photos": [{"height": 3432, "html_attributions": ["<a href=\"https://maps.google.com/maps/contrib/110335547839321635785\">The Out Hotel</a>"], "photo_reference": "ATtYBwLzUVzsXmx2D7wkMmqPLaQxgKg7wD7qc9GslHTibxnLMUSry2SRh5z58Ty7yA0rWKpYZF7u2z8CkpmkWq6o8GAuB_yFiro-5WLdaaMo_qz3ws9VQYRdiH_8_uJYOhoEmtImWqIvsUNYNdgTabhdDF7sewZWqbJEqpQiWYCq5zVHZujl", "width": 4978}], "place_id": "ChIJc87lok1YwokRJzddYNyu9Ys", "plus_code": {"compound_code": "Q253+WC New York, NY, USA", "global_code": "87G8Q253+WC"}, "rating": 3.9, "reference": "ChIJc87lok1YwokRJzddYNyu9Ys", "scope": "GOOGLE", "types": ["night_club", "spa", "lodging", "bar", "restaurant", "food", "point_of_interest", "establishment"], "user_ratings_total": 264, "vicinity": "510 West 42nd Street, New York"}, {"business_status": "OPERATIONAL", "geometry": {"location": {"lat": 40.71981419999999, "lng": -74.00007339999999}, "viewport": {"northeast": {"lat": 40.7212065802915, "lng": -73.99885641970849}, "southwest": {"lat": 40.7185086197085, "lng": -74.0015543802915}}}, "icon": "https://maps.gstatic.com/mapfiles/place_api/icons/v1/png_71/lodging-71.png", "name": "NOMO SOHO", "opening_hours": {"open_now": true}, "photos": [{"height": 2736, "html_attributions": ["<a href=\"https://maps.google.com/maps/contrib/107941340613781842578\">Gaby Garc\u00eda</a>"], "photo_reference": "ATtYBwKabxsnQkSL7FS2zefnIc1w3kmIeKZHdyE9aFjMgzBrtHtPMWhvF4wLaBCNoFE6t4-5futUo7UD-UitzRMJypxrtvWYpqa8-MNlFqhz2-Gzm4UlgDr8cbB11pvxsU8kTjYjtWqYx5P5VE45JcpESfM_Rs-Ec_1z8WOfrNeQ2k_P1Nxc", "width": 3648}], "place_id": "ChIJM8mGj4lZwokRSbZBvNOVNKM", "plus_code": {"compound_code": "PX9X+WX New York, NY, USA", "global_code": "87G7PX9X+WX"}, "price_level": 3, "rating": 4.2, "reference": "ChIJM8mGj4lZwokRSbZBvNOVNKM", "scope": "GOOGLE", "types": ["meal_takeaway", "lodging", "restaurant", "food", "point_of_interest", "establishment"], "user_ratings_total": 1199, "vicinity": "9 Crosby Street, New York"}, {"business_status": "OPERATIONAL", "geometry": {"location": {"lat": 40.679225, "lng": -73.98316200000001}, "viewport": {"northeast": {"lat": 40.6805018802915, "lng": -73.9818301697085}, "southwest": {"lat": 40.6778039197085, "lng": -73.98452813029152}}}, "icon": "https://maps.gstatic.com/mapfiles/place_api/icons/v1/png_71/lodging-71.png", "name": "Union Hotel, Ascend Hotel Collection", "opening_hours": {"open_now": true}, "photos": [{"height": 1638, "html_attributions": ["<a href=\"https://maps.google.com/maps/contrib/107576589143997416395\">Union Hotel, Ascend Hotel Collection</a>"], "photo_reference": "ATtYBwLUKzbEQu6lQg0RrnVl3GtCxoVJU03pON6pVjgal8OYlbaWO0Au8sIrHVxJf_p_Gr-RAk2YNIKzESgqsMQi2WE81L3vyArL0cOeBVsvK3mJVV-p8NteGVRuFIS13lr-Vd2h5ii89uOmfVwStZIGrTp7NhO1FFRoHmz7FO5pKp4U23IO", "width": 2640}], "place_id": "ChIJNw_kzFRawokRESt-098Pb7Q", "plus_code": {"compound_code": "M2H8+MP New York, NY, USA", "global_code": "87G8M2H8+MP"}, "rating": 3.1, "reference": "ChIJNw_kzFRawokRESt-098Pb7Q", "scope": "GOOGLE", "types": ["lodging", "bar", "restaurant", "food", "point_of_interest", "establishment"], "user_ratings_total": 444, "vicinity": "611 Degraw Street, Brooklyn"}, {"business_status": "OPERATIONAL", "geometry": {"location": {"lat": 40.922675, "lng": -73.964809}, "viewport": {"northeast": {"lat": 40.9243049, "lng": -73.9631902197085}, "southwest": {"lat": 40.9212805, "lng": -73.9658881802915}}}, "icon": "https://maps.gstatic.com/mapfiles/place_api/icons/v1/png_71/lodging-71.png", "name": "Clinton Inn Hotel & Event Center", "opening_hours": {"open_now": true}, "photos": [{"height": 1086, "html_attributions": ["<a href=\"https://maps.google.com/maps/contrib/105327215617543607443\">Clinton Inn Hotel &amp; Event Center</a>"], "photo_reference": "ATtYBwJgl-NzLivahMB0Ru7TWRFUhWHn5FzTknJdjz3NJYWjMUn2vJRZXBctNo9mf33CfblfZB6Yzj2_a3F3jx8hrPiqWjU7mQhSVWc9AUMk4ynUru3fhCh5EasdHTTT8gx874sKIRre1xEsCBqFx1MWwexdEu0ufoNDKELjkBcKk0A0jG0L", "width": 1629}], "place_id": "ChIJa-xxg7zxwokROrd4XjHG0eo", "plus_code": {"compound_code": "W2FP+33 Tenafly, NJ, USA", "global_code": "87G8W2FP+33"}, "rating": 3.8, "reference": "ChIJa-xxg7zxwokROrd4XjHG0eo", "scope": "GOOGLE", "types": ["lodging", "restaurant", "food", "point_of_interest", "establishment"], "user_ratings_total": 638, "vicinity": "145 Dean Drive, Tenafly"}, {"business_status": "OPERATIONAL", "geometry": {"location": {"lat": 41.0510663, "lng": -73.8567606}, "viewport": {"northeast": {"lat": 41.0523973802915, "lng": -73.85527701970848}, "southwest": {"lat": 41.0496994197085, "lng": -73.8579749802915}}}, "icon": "https://maps.gstatic.com/mapfiles/place_api/icons/v1/png_71/lodging-71.png", "name": "Tarrytown House Estate on The Hudson", "opening_hours": {"open_now": true}, "photos": [{"height": 503, "html_attributions": ["<a href=\"https://maps.google.com/maps/contrib/102015319804208886616\">Tarrytown House Estate on The Hudson</a>"], "photo_reference": "ATtYBwJc5sxkrb2tASwMb7FiVax9oRsm4qDgqdt-yjPk8tmm5cBSCyuvDj0L-QI_XxxFczBx5CeoBwyhncloHV4sWvYwMNYKs5TO0eB5n0hfImtzCjAPx7Jqlpx9hnvRykN_WfGQqCBrNg28bNZzbQSyPOwsOeTONxOtb9ljExDwdfvZE_tR", "width": 895}], "place_id": "ChIJeW7VxCjrwokRlH1qQGx43fY", "plus_code": {"compound_code": "342V+C7 Tarrytown, NY, USA", "global_code": "87H8342V+C7"}, "rating": 4.2, "reference": "ChIJeW7VxCjrwokRlH1qQGx43fY", "scope": "GOOGLE", "types": ["lodging", "restaurant", "food", "point_of_interest", "establishment"], "user_ratings_total": 897, "vicinity": "49 East Sunnyside Lane, Tarrytown"}, {"business_status": "OPERATIONAL", "geometry": {"location": {"lat": 40.7573681, "lng": -73.9835798}, "viewport": {"northeast": {"lat": 40.7586323302915, "lng": -73.9823113197085}, "southwest": {"lat": 40.75593436970851, "lng": -73.98500928029151}}}, "icon": "https://maps.gstatic.com/mapfiles/place_api/icons/v1/png_71/restaurant-71.png", "name": "Connolly's", "opening_hours": {"open_now": true}, "photos": [{"height": 3723, "html_attributions": ["<a href=\"https://maps.google.com/maps/contrib/104214367240022741666\">Vladimir Panov</a>"], "photo_reference": "ATtYBwJADDrjh0Ha9l0LAtU1imXsNiT7AqATXl-yDU6GaOgT5VwjULEymEPvCDLIubq9SHB9TkkfL_8-m0INiPDq6ySjwvRJ7l-ke7AY2j98_p8h-YJd0oQoBh--i5SZbM1Lwni2VZXXWUb4Pgf8vNKbo6-ZSdDDxwsHn5amXOssi5ZpOD9v", "width": 2862}], "place_id": "ChIJAS6GeVVYwokRPfg8xt4nH-I", "plus_code": {"compound_code": "Q248+WH New York, NY, USA", "global_code": "87G8Q248+WH"}, "price_level": 2, "rating": 4.4, "reference": "ChIJAS6GeVVYwokRPfg8xt4nH-I", "scope": "GOOGLE", "types": ["bar", "restaurant", "food", "point_of_interest", "establishment"], "user_ratings_total": 2486, "vicinity": "121 West 45th Street, New York"}, {"business_status": "OPERATIONAL", "geometry": {"location": {"lat": 40.73, "lng": -74.00072779999999}, "viewport": {"northeast": {"lat": 40.7312968802915, "lng": -73.9993142197085}, "southwest": {"lat": 40.7285989197085, "lng": -74.0020121802915}}}, "icon": "https://maps.gstatic.com/mapfiles/place_api/icons/v1/png_71/restaurant-71.png", "name": "Artichoke Basille's Pizza", "opening_hours": {"open_now": true}, "photos": [{"height": 3024, "html_attributions": ["<a href=\"https://maps.google.com/maps/contrib/106717728698394069787\">Shravankumar Hiregoudar</a>"], "photo_reference": "ATtYBwJpyURZ8FVasojtSe6d7O_7QvLGhC5P53vTBQumIyxG9a2oHXThaZqCzaLTDZy1vQHruIS--w2xpd5Klhhq34DcQwrLN84C8-GhJ0fgBrx_m1Oxr9nBQahZXtvIghJAd3mAtY4JK2FRYdx6g8rve0oRFhRaAULOmarhDexGwmPGEGp8", "width": 4032}], "place_id": "ChIJ10EpKJJZwokRUjIWaunOQbI", "plus_code": {"compound_code": "PXHX+XP New York, NY, USA", "global_code": "87G7PXHX+XP"}, "price_level": 2, "rating": 4.4, "reference": "ChIJ10EpKJJZwokRUjIWaunOQbI", "scope": "GOOGLE", "types": ["restaurant", "food", "point_of_interest", "establishment"], "user_ratings_total": 1321, "vicinity": "111 MacDougal Street, New York"}, {"business_status": "OPERATIONAL", "geometry": {"location": {"lat": 40.5226058, "lng": -74.3361129}, "viewport": {"northeast": {"lat": 40.5241873302915, "lng": -74.3348289697085}, "southwest": {"lat": 40.5214893697085, "lng": -74.3375269302915}}}, "icon": "https://maps.gstatic.com/mapfiles/place_api/icons/v1/png_71/lodging-71.png", "name": "E Hotel Banquet & Conference Center", "opening_hours": {"open_now": true}, "photos": [{"height": 768, "html_attributions": ["<a href=\"https://maps.google.com/maps/contrib/101978683569058752263\">E Hotel Banquet &amp; Conference Center</a>"], "photo_reference": "ATtYBwJ6KxKuwjgNlfKQHK4trKLegrw7qjv6JtOmaaRNM5RVBD8tdFA9Krc0hKpwxvyWmLAYo5p4gQlwvoWvWjbO2EcdiqcreVdS-e4opPzNzYZ5lvtrkqIQDCUOhOJfi8p7H2PCrvaEzbUrfeDjWxETTDSKaWMWtrG36-dEKIUW_EfFD46E", "width": 1024}], "place_id": "ChIJE3HmdN7Jw4kRyn8CVMFDkic", "plus_code": {"compound_code": "GMF7+2H Edison, NJ, USA", "global_code": "87G7GMF7+2H"}, "rating": 3.1, "reference": "ChIJE3HmdN7Jw4kRyn8CVMFDkic", "scope": "GOOGLE", "types": ["lodging", "restaurant", "food", "point_of_interest", "establishment"], "user_ratings_total": 957, "vicinity": "3050 Woodbridge Avenue, Edison"}, {"business_status": "OPERATIONAL", "geometry": {"location": {"lat": 40.7163226, "lng": -73.9886495}, "viewport": {"northeast": {"lat": 40.71774308029151, "lng": -73.9872212197085}, "southwest": {"lat": 40.71504511970851, "lng": -73.98991918029151}}}, "icon": "https://maps.gstatic.com/mapfiles/place_api/icons/v1/png_71/restaurant-71.png", "name": "Doughnut Plant", "opening_hours": {"open_now": true}, "photos": [{"height": 2219, "html_attributions": ["<a href=\"https://maps.google.com/maps/contrib/117808460219123378764\">Ruwan J.</a>"], "photo_reference": "ATtYBwJKINUzrdt_jhTPmnJY3K0kJXY4B0IMF3CE-8bj8QZ7qFsFB0jK_BhDHmvS1DL53nSk-wkn3KK1XuaR1rwU2WKLsU2yTaCLcBmtRud2-W402jbUyD4ZYfIIPXrOTvy793EHNUMSj6iIV-kOtxi0QF96rebYKNfiuWzUxHS0JiUyrzZa", "width": 3726}], "place_id": "ChIJ2SZLBypawokR5g0jFxaMY10", "plus_code": {"compound_code": "P286+GG New York, NY, USA", "global_code": "87G8P286+GG"}, "price_level": 2, "rating": 4.5, "reference": "ChIJ2SZLBypawokR5g0jFxaMY10", "scope": "GOOGLE", "types": ["bakery", "cafe", "restaurant", "food", "point_of_interest", "store", "establishment"], "user_ratings_total": 1772, "vicinity": "379 Grand Street, New York"}, {"business_status": "OPERATIONAL", "geometry": {"location": {"lat": 40.7763839, "lng": -73.55883949999999}, "viewport": {"northeast": {"lat": 40.7778147302915, "lng": -73.55749906970848}, "southwest": {"lat": 40.7751167697085, "lng": -73.56019703029149}}}, "icon": "https://maps.gstatic.com/mapfiles/place_api/icons/v1/png_71/lodging-71.png", "name": "Viana Hotel and Spa", "opening_hours": {"open_now": true}, "photos": [{"height": 608, "html_attributions": ["<a href=\"https://maps.google.com/maps/contrib/106363993467908515321\">Viana Hotel and Spa</a>"], "photo_reference": "ATtYBwJ2c8Hwc1aIw_S2_BiXAf9Eu2l1zX4fRDgM3O1oooiJ4O9rIZsJU7h_eJwjI8_l30xLbVyFp9hcq12y2DcZTINavprSphK5H3dbqKCHgHdtftsDN8yV0UH2Hpqu77Oj1L2YVIn-MedW_N9A8Hx4ch-nZRlU7FGcHVWqj6CI2YQ1J0Gq", "width": 1080}], "place_id": "ChIJaVqfMyuBwokRwcHdqyFaDY8", "plus_code": {"compound_code": "QCGR+HF Westbury, NY, USA", "global_code": "87G8QCGR+HF"}, "rating": 4.5, "reference": "ChIJaVqfMyuBwokRwcHdqyFaDY8", "scope": "GOOGLE", "types": ["spa", "lodging", "restaurant", "food", "point_of_interest", "establishment"], "user_ratings_total": 969, "vicinity": "3998 Brush Hollow Road, Westbury"}, {"business_status": "OPERATIONAL", "geometry": {"location": {"lat": 40.6250267, "lng": -73.9615228}, "viewport": {"northeast": {"lat": 40.6264467802915, "lng": -73.96015161970848}, "southwest": {"lat": 40.6237488197085, "lng": -73.9628495802915}}}, "icon": "https://maps.gstatic.com/mapfiles/place_api/icons/v1/png_71/restaurant-71.png", "name": "Di Fara Pizza", "opening_hours": {"open_now": true}, "photos": [{"height": 6936, "html_attributions": ["<a href=\"https://maps.google.com/maps/contrib/104209242556862771700\">Gi Han</a>"], "photo_reference": "ATtYBwIruJWBGih_SwiC9kTrDeWTeipyW8LXWUHmalAXTQ43wBRotZvS9DxT0Z6eA7vGD7EcLmiuG46K6jTFHrT-1Z5YkDokSkPrnGzUeGTdy2O4j3Q4IuChogov5fvL0a1g4DdTyVVXSFogC8A7SD0tjTob9BKLUBRf2MolF2s5I9l1frVu", "width": 9248}], "place_id": "ChIJM2mGRMhEwokRv1Fy6oFJ570", "plus_code": {"compound_code": "J2GQ+29 New York, NY, USA", "global_code": "87G8J2GQ+29"}, "price_level": 3, "rating": 4.2, "reference": "ChIJM2mGRMhEwokRv1Fy6oFJ570", "scope": "GOOGLE", "types": ["meal_takeaway", "restaurant", "food", "point_of_interest", "establishment"], "user_ratings_total": 2796, "vicinity": "1424 Avenue J, Brooklyn"}, {"business_status": "OPERATIONAL", "geometry": {"location": {"lat": 40.70379190000001, "lng": -73.994737}, "viewport": {"northeast": {"lat": 40.7051353302915, "lng": -73.9933451197085}, "southwest": {"lat": 40.70243736970851, "lng": -73.9960430802915}}}, "icon": "https://maps.gstatic.com/mapfiles/place_api/icons/v1/png_71/restaurant-71.png", "name": "The River Caf\u00e9", "opening_hours": {"open_now": false}, "photos": [{"height": 1200, "html_attributions": ["<a href=\"https://maps.google.com/maps/contrib/110287755892943639196\">The River Caf\u00e9</a>"], "photo_reference": "ATtYBwJAkcGU6QC2PZfrqOxvvC-kmtdKsj6VAFpNf9si_omjkzJdEbY4vJPKj9zEFzyN19XBt3gtFAigli7-y-87JkwmbYd-VZEsagvzuVstG7Be4r8k0jz3L2gSbtpkQUmGpk31KxUwNatBpKE0U7MqsMCrRZI4DTZxqvBZQq4k4xvT-sLf", "width": 1800}], "place_id": "ChIJ2QZOdTpawokRU_eN_EPJaX8", "plus_code": {"compound_code": "P234+G4 New York, NY, USA", "global_code": "87G8P234+G4"}, "price_level": 4, "rating": 4.5, "reference": "ChIJ2QZOdTpawokRU_eN_EPJaX8", "scope": "GOOGLE", "types": ["bar", "restaurant", "food", "point_of_interest", "establishment"], "user_ratings_total": 1640, "vicinity": "1 Water Street, Brooklyn"}, {"business_status": "OPERATIONAL", "geometry": {"location": {"lat": 40.7607, "lng": -74.01803509999999}, "viewport": {"northeast": {"lat": 40.7621408302915, "lng": -74.01688966970849}, "southwest": {"lat": 40.7594428697085, "lng": -74.0195876302915}}}, "icon": "https://maps.gstatic.com/mapfiles/place_api/icons/v1/png_71/restaurant-71.png", "name": "Chart House", "opening_hours": {"open_now": false}, "photos": [{"height": 3024, "html_attributions": ["<a href=\"https://maps.google.com/maps/contrib/113921194396719053752\">\ubc15\uc7ac\uc131</a>"], "photo_reference": "ATtYBwId6FTfh1jUgR5i_zPBs_pgBLbclE38dAMRm3THLtb_2CbwrnB2RrHlPTXLasK5G9AphXbIfAmh_JAQVBZdLoS8eHG0aUamTwRPFyfY7-9pOnKm9uPW-9sAUNmmpzEkD5r1SeAlCX2ZytcTwmm6xOP5moWCFDTFOP-FEU5WeeHUIaIV", "width": 4032}], "place_id": "ChIJfSrfpzJYwokRZK7ZRue5tG8", "plus_code": {"compound_code": "QX6J+7Q Weehawken, NJ, USA", "global_code": "87G7QX6J+7Q"}, "price_level": 3, "rating": 4.5, "reference": "ChIJfSrfpzJYwokRZK7ZRue5tG8", "scope": "GOOGLE", "types": ["restaurant", "food", "point_of_interest", "establishment"], "user_ratings_total": 4720, "vicinity": "1700 Harbor Boulevard, Weehawken"}, {"business_status": "OPERATIONAL", "geometry": {"location": {"lat": 40.70412899999999, "lng": -74.010336}, "viewport": {"northeast": {"lat": 40.7054851302915, "lng": -74.00896151970849}, "southwest": {"lat": 40.7027871697085, "lng": -74.0116594802915}}}, "icon": "https://maps.gstatic.com/mapfiles/place_api/icons/v1/png_71/bar-71.png", "name": "Beckett's Bar & Grill", "opening_hours": {"open_now": true}, "photos": [{"height": 450, "html_attributions": ["<a href=\"https://maps.google.com/maps/contrib/116422841424895618318\">Beckett&#39;s Bar &amp; Grill</a>"], "photo_reference": "ATtYBwIvkOUNwhOJ8mQC63XaX6BjS7GRfaHG4a06M6HvTTKxcR44j-YCtZRQg1Py-7UF2TJ-zY4vooFiatMCGNpYbhFQ0KgUwQfLJV1GJ57ZITjzdMtIkwyghsuN5-yLhHpE__HzEBMSs_6sE6siEFbsUsA8TgVBgYAy4nxrEJyPQ-NOXG8x", "width": 800}], "place_id": "ChIJ3blcJRRawokRex4mbeb9Ix4", "plus_code": {"compound_code": "PX3Q+MV New York, NY, USA", "global_code": "87G7PX3Q+MV"}, "price_level": 2, "rating": 4.1, "reference": "ChIJ3blcJRRawokRex4mbeb9Ix4", "scope": "GOOGLE", "types": ["bar", "restaurant", "food", "point_of_interest", "establishment"], "user_ratings_total": 336, "vicinity": "81 Pearl Street, New York"}, {"business_status": "OPERATIONAL", "geometry": {"location": {"lat": 40.7358805, "lng": -74.00496729999999}, "viewport": {"northeast": {"lat": 40.7372223802915, "lng": -74.00368736970849}, "southwest": {"lat": 40.7345244197085, "lng": -74.00638533029151}}}, "icon": "https://maps.gstatic.com/mapfiles/place_api/icons/v1/png_71/restaurant-71.png", "name": "Magnolia", "opening_hours": {"open_now": true}, "photos": [{"height": 3456, "html_attributions": ["<a href=\"https://maps.google.com/maps/contrib/110998140459284225124\">Magnolia Bakery - West Village</a>"], "photo_reference": "ATtYBwKjCmAJ5YpF8HIIjB8KdtgtrjiLLlsUl8y_DYS_kdLuVfgZHPWTT_UvTb2tiILcEroVQEHkWC5zx5vY6zY0NP2lLf4TEJ4vfWeQCuNWlRoRlWbdVzKN7l9cb_spIo-tOMKO62k4vve1v8sZmCAt0qm8ZA771XhykfxgvT8dpnm0q9QX", "width": 5184}], "place_id": "ChIJF9Du35RZwokRFGd0oc4diZs", "plus_code": {"compound_code": "PXPW+92 New York, NY, USA", "global_code": "87G7PXPW+92"}, "price_level": 2, "rating": 4.4, "reference": "ChIJF9Du35RZwokRFGd0oc4diZs", "scope": "GOOGLE", "types": ["bakery", "restaurant", "food", "point_of_interest", "store", "establishment"], "user_ratings_total": 2846, "vicinity": "West 11th Street, 401 Bleecker Street, New York"}, {"business_status": "OPERATIONAL", "geometry": {"location": {"lat": 40.7626593, "lng": -73.9714411}, "viewport": {"northeast": {"lat": 40.76405388029148, "lng": -73.9700522697085}, "southwest": {"lat": 40.76135591970849, "lng": -73.97275023029151}}}, "icon": "https://maps.gstatic.com/mapfiles/place_api/icons/v1/png_71/restaurant-71.png", "name": "TAO Uptown", "opening_hours": {"open_now": false}, "photos": [{"height": 1402, "html_attributions": ["<a href=\"https://maps.google.com/maps/contrib/111193428587917886143\">TAO Uptown</a>"], "photo_reference": "ATtYBwKb1YRnSvjzyHkjhxFMjU_I340aM6p3W5Bc8-VJTrSy9OrDuT-o8dG77LxM7I3te8R-mrcv6DhMr15qbJAHOjis6D34DegpasqppY8zZojQ3C_8EvU3o0riPCW3f9dS764aCt-io2n1-rH-4ihUHxhVSSY4wu__GD5Omyd43tTxnskk", "width": 2048}], "place_id": "ChIJh3qVsvpYwokRVtJoHuKeQ3M", "plus_code": {"compound_code": "Q27H+3C New York, NY, USA", "global_code": "87G8Q27H+3C"}, "price_level": 3, "rating": 4.3, "reference": "ChIJh3qVsvpYwokRVtJoHuKeQ3M", "scope": "GOOGLE", "types": ["restaurant", "food", "point_of_interest", "establishment"], "user_ratings_total": 2708, "vicinity": "42 East 58th Street, New York"}, {"business_status": "OPERATIONAL", "geometry": {"location": {"lat": 41.04025300000001, "lng": -73.584487}, "viewport": {"northeast": {"lat": 41.0418367302915, "lng": -73.58318581970848}, "southwest": {"lat": 41.0391387697085, "lng": -73.5858837802915}}}, "icon": "https://maps.gstatic.com/mapfiles/place_api/icons/v1/png_71/lodging-71.png", "name": "The J House Greenwich", "opening_hours": {"open_now": true}, "photos": [{"height": 2333, "html_attributions": ["<a href=\"https://maps.google.com/maps/contrib/117104324157768561190\">The J House Greenwich</a>"], "photo_reference": "ATtYBwLSTpZFqoBY50HmDu9v_og2HnSkO6dpuX2tzJvfaRnfgdYWh_i3OpcLy3qukPlJoAENaYL2RTzqPZBy_23muDkWhrP57yMP7RH2LC2FLNZBgjPnnosNGgM2LkMIZRjkVkM9mYtGdGgpPfDbD5JrmHN2jcisVYWXgHlI5SOwvISEayEZ", "width": 3500}], "place_id": "ChIJ10DDtZeYwokRhN72ZJ-fpyU", "plus_code": {"compound_code": "2CR8+46 Riverside, Greenwich, CT, USA", "global_code": "87H82CR8+46"}, "rating": 4.4, "reference": "ChIJ10DDtZeYwokRhN72ZJ-fpyU", "scope": "GOOGLE", "types": ["spa", "lodging", "bar", "restaurant", "food", "point_of_interest", "establishment"], "user_ratings_total": 444, "vicinity": "1114 East Putnam Avenue, Riverside"}], "status": "OK"}