{"html_attributions": [], "next_page_token": "ATtYBwLeihT664dybtxx4bYy-7k5ag96FTb9zghVawQrsHA4eWIcj0WNUjtZg6c4FVMPJvCidkW3LCfTCA7SYzuB8kUBP-VFgX8WRL1xtMvxhCgH53Wen-TwcpIv8grWS9-Mfkk8PEFJP33KY0BqzlPyS3nibFJsDI0-_fm-0fg5srpPyq8H26li3ZSj9DpYw8vpFd6gslq0PaHB36V4k_8hnBRUctaDzjx6E1zNerO-1IuW1P8p-6wg07MjSHeyDShY4inAk1nMdB7Z6aLVR0lPv12Alvdt8L3Mo7rzOxZPr33i6Cq759DFxHot0wHW9hHkvu8_NkeOyQBye78IxkMmXkpAIKE8eouMlsXdmULdWS4VP3gjLxOm39munhQIA1oMMxPaY4nTR9JMpD_C_0wKATzxSHvGuGzV0CnhkpXxCAr4cExJnsVJvfHCyFz-_jjNbGJDxIqvkSel1kZB1MY3I0jh-4fLorxZuL2aXCOCJsOnJAHyK9zskHUvoxtBVep4C2wdfQATUH4H-xBCymjFfHIZCEQdndWyr28XFnlvUBXxOrFviloRv6s0mah0bDyjRIFW3tM7SkdT5VWPqrEYMK47nCddfZsl7huah0MxttYFp8e07dv_OF91figj4UZFkvk3QVOHJAmh9o-e1A", "results": [{"business_status": "OPERATIONAL", "geometry": {"location": {"lat": 40.9172258, "lng": -74.0756392}, "viewport": {"northeast": {"lat": 40.92508185000001, "lng": -74.06856939999999}, "southwest": {"lat": 40.90895205, "lng": -74.08564460000001}}}, "icon": "https://maps.gstatic.com/mapfiles/place_api/icons/v1/png_71/shopping-71.png", "name": "Westfield Garden State Plaza", "opening_hours": {"open_now": true}, "photos": [{"height": 3024, "html_attributions": ["<a href=\"https://maps.google.com/maps/contrib/104640134634574982929\">Jennifer Decker</a>"], "photo_reference": "ATtYBwJvnuhXdNXNOUR29QOmBnsGDxAhCihSsCI4Rk1lB9D7U0Kvbuj8aU-NYysrBHmQYzcguzMS4pbA9LhTTWHPMW19tOxy_7-zrcOssCNmTBOHVSEDumshSZXZap1sEsypt1VTIuulagA2nowRyQ3JbXSDJIAkh9wb9l7CzukdX_-eMfYJ", "width": 4032}], "place_id": "ChIJ51pKtVL6wokRcgTPdEqH1ME", "plus_code": {"compound_code": "WW8F+VP Paramus, NJ, USA", "global_code": "87G7WW8F+VP"}, "rating": 4.5, "reference": "ChIJ51pKtVL6wokRcgTPdEqH1ME", "scope": "GOOGLE", "types": ["shopping_mall", "department_store", "movie_theater", "shoe_store", "restaurant", "food", "point_of_interest", "clothing_store", "store", "establishment"], "user_ratings_total": 16888, "vicinity": "One Garden State Plaza, Paramus"}, {"business_status": "OPERATIONAL", "geometry": {"location": {"lat": 40.7514762, "lng": -73.9883517}, "viewport": {"northeast": {"lat": 40.75291758029151, "lng": -73.9869349697085}, "southwest": {"lat": 40.75021961970851, "lng": -73.9896329302915}}}, "icon": "https://maps.gstatic.com/mapfiles/place_api/icons/v1/png_71/restaurant-71.png", "name": "Lan Sheng", "opening_hours": {"open_now": true}, "photos": [{"height": 633, "html_attributions": ["<a href=\"https://maps.google.com/maps/contrib/105387166795229313133\">Lan Sheng</a>"], "photo_reference": "ATtYBwK2hHwYnX2DlMaUT9TtPKCkQRxLDLzfTIzoUDG807pCjLnK6fb7uV1SeRKKqmmerO26c7SduhpJHI1o8jhJ746r7k0_oWFtxxOIB8hbzRfzXGvcaK88gRKnGPRZVuAhfYDY68s4d2DkvwEDsEx1cjnU0_vKsekE3fqYmHSUXMoZ931A", "width": 1125}], "place_id": "ChIJM6NLWapZwokR5Gj7tgBAfWo", "plus_code": {"compound_code": "Q226+HM New York, NY, USA", "global_code": "87G8Q226+HM"}, "price_level": 2, "rating": 4, "reference": "ChIJM6NLWapZwokR5Gj7tgBAfWo", "scope": "GOOGLE", "types": ["restaurant", "food", "point_of_interest", "establishment"], "user_ratings_total": 486, "vicinity": "128 West 36th Street, New York"}, {"business_status": "OPERATIONAL", "geometry": {"location": {"lat": 40.74296950000001, "lng": -73.9893858}, "viewport": {"northeast": {"lat": 40.7444374802915, "lng": -73.9880309697085}, "southwest": {"lat": 40.7417395197085, "lng": -73.99072893029151}}}, "icon": "https://maps.gstatic.com/mapfiles/place_api/icons/v1/png_71/bar-71.png", "name": "The 40/40 Club", "opening_hours": {"open_now": false}, "photos": [{"height": 3024, "html_attributions": ["<a href=\"https://maps.google.com/maps/contrib/118418239486822996379\">Anthony Liriano 24 Hours</a>"], "photo_reference": "ATtYBwKEUsX8_70B0-JbnsIImSCdhl9aEHEubM2KP8WSDvCQUrJyJJAJMm79Vw2bnyp89fvjeKzPXY2BEUQvbPiWE45_u6iXuEKjataoUx_S_mjdyVJKNd-xT2QDjhl_KwMHv1mkJzwboQH4xr_6uICJP8eDFlUZP3QxWWMjokg_0RCZbKKU", "width": 4032}], "place_id": "ChIJ-8qQJaRZwokROBJmbLfbWDg", "plus_code": {"compound_code": "P2V6+56 New York, NY, USA", "global_code": "87G8P2V6+56"}, "price_level": 3, "rating": 4.1, "reference": "ChIJ-8qQJaRZwokROBJmbLfbWDg", "scope": "GOOGLE", "types": ["night_club", "bar", "restaurant", "food", "point_of_interest", "establishment"], "user_ratings_total": 1283, "vicinity": "6 West 25th Street, New York"}, {"business_status": "CLOSED_TEMPORARILY", "geometry": {"location": {"lat": 40.7605396, "lng": -73.9774216}, "viewport": {"northeast": {"lat": 40.7617647302915, "lng": -73.97614871970849}, "southwest": {"lat": 40.7590667697085, "lng": -73.97884668029151}}}, "icon": "https://maps.gstatic.com/mapfiles/place_api/icons/v1/png_71/restaurant-71.png", "name": "21 Club", "permanently_closed": true, "photos": [{"height": 1997, "html_attributions": ["<a href=\"https://maps.google.com/maps/contrib/100691634387600446654\">21 Club</a>"], "photo_reference": "ATtYBwLmQi89dUv7T4_e3M7qHRDQKxcjCtBwiW30206UcV3fus3BqHWJPMeRjCjy-sx8D2ZRzf-0s9XjA0FYzEKr6bbxv0X7_yBle821zl4-QZN4dVz-9QjnHps7qtrHs9UAR1Hk3U6AuteD6MtA6M6MmRiYPwEqoGvSb80Emvlv1KepIZgp", "width": 3000}], "place_id": "ChIJpZepXflYwokRNuSe6xAwprw", "plus_code": {"compound_code": "Q26F+62 New York, NY, USA", "global_code": "87G8Q26F+62"}, "price_level": 4, "rating": 4.4, "reference": "ChIJpZepXflYwokRNuSe6xAwprw", "scope": "GOOGLE", "types": ["restaurant", "food", "point_of_interest", "establishment"], "user_ratings_total": 867, "vicinity": "21 West 52nd Street, New York"}, {"business_status": "OPERATIONAL", "geometry": {"location": {"lat": 40.757498, "lng": -73.986654}, "viewport": {"northeast": {"lat": 40.7589056302915, "lng": -73.98532551970851}, "southwest": {"lat": 40.7562076697085, "lng": -73.98802348029152}}}, "icon": "https://maps.gstatic.com/mapfiles/place_api/icons/v1/png_71/restaurant-71.png", "name": "Carmine's Italian Restaurant - Times Square", "opening_hours": {"open_now": true}, "photos": [{"height": 1080, "html_attributions": ["<a href=\"https://maps.google.com/maps/contrib/107712532148225729261\">Carmine&#39;s Italian Restaurant - Times Square</a>"], "photo_reference": "ATtYBwLy1Vauj72JY2YGKBmEpzLvDnHERSLY7o1H3bcb1hvnnz-jzb6ZqlDf9HDzPofubKie9grpg-ZQiUxMBVP7cgH8fF7Z7juDSYD34kiPFnpetKlRS2R145sOUU1cgY4QLZEPUEbmJ29IC_8YhXrphXWi3sx9DsmliD0eo9cBayzrGKeB", "width": 1920}], "place_id": "ChIJR9So-lRYwokRX1xEjA0rChA", "plus_code": {"compound_code": "Q247+X8 New York, NY, USA", "global_code": "87G8Q247+X8"}, "price_level": 2, "rating": 4.5, "reference": "ChIJR9So-lRYwokRX1xEjA0rChA", "scope": "GOOGLE", "types": ["restaurant", "food", "point_of_interest", "establishment"], "user_ratings_total": 11091, "vicinity": "200 West 44th Street, New York"}, {"business_status": "OPERATIONAL", "geometry": {"location": {"lat": 40.76107179999999, "lng": -73.98030349999999}, "viewport": {"northeast": {"lat": 40.7622697802915, "lng": -73.9786942197085}, "southwest": {"lat": 40.7595718197085, "lng": -73.98139218029151}}}, "icon": "https://maps.gstatic.com/mapfiles/place_api/icons/v1/png_71/restaurant-71.png", "name": "Bistro New York", "opening_hours": {"open_now": true}, "photos": [{"height": 2448, "html_attributions": ["<a href=\"https://maps.google.com/maps/contrib/108427399698816213863\">Satish Shikhare</a>"], "photo_reference": "ATtYBwKdst3GNMcXMQ2XUTtuAGkUA7slx1vG4Ny1oDfcnk63TxPFeDeBPGAnlyJYaNupkB8rgWTjAD6D4n8rN6m2qtAee5NZtpv-g98vms6x-rQxQsBN1eFbYsu_sCt-hXrgOw-FOhxE3F3eb5ACDo1YMxcTQx6u8Cm0m3npTI4drSxJ38-0", "width": 3264}], "place_id": "ChIJkbeKH_lYwokRI-A2Yuf_XSg", "plus_code": {"compound_code": "Q269+CV New York, NY, USA", "global_code": "87G8Q269+CV"}, "price_level": 1, "rating": 3, "reference": "ChIJkbeKH_lYwokRI-A2Yuf_XSg", "scope": "GOOGLE", "types": ["restaurant", "food", "point_of_interest", "establishment"], "user_ratings_total": 6, "vicinity": "1285 6th Avenue, New York"}, {"business_status": "OPERATIONAL", "geometry": {"location": {"lat": 40.7531999, "lng": -73.982957}, "viewport": {"northeast": {"lat": 40.75483878029149, "lng": -73.9815432697085}, "southwest": {"lat": 40.7521408197085, "lng": -73.9842412302915}}}, "icon": "https://maps.gstatic.com/mapfiles/place_api/icons/v1/png_71/restaurant-71.png", "name": "Bryant Park Grill", "opening_hours": {"open_now": true}, "photos": [{"height": 1171, "html_attributions": ["<a href=\"https://maps.google.com/maps/contrib/113955288381291273946\">Bryant Park Grill</a>"], "photo_reference": "ATtYBwKEEA0Aq3elAnuRSj-1UnyDkQ_vQRYandgfLl70wijsayOBxxlYi8bJObkD6oAuFbrXuJvceeJiTVvDvQYn7v9es8AqIu9Fgx0pJ5SyVariuc0yy3nl_c71LA6Pxcx9QEs9M-WqM13EGwKwPynHv5goKdkn0C151I7QuM95Sfs1Xmr1", "width": 2048}], "place_id": "ChIJqTF1eABZwokR3ZMQ2obIW4w", "plus_code": {"compound_code": "Q238+7R New York, NY, USA", "global_code": "87G8Q238+7R"}, "price_level": 2, "rating": 4.3, "reference": "ChIJqTF1eABZwokR3ZMQ2obIW4w", "scope": "GOOGLE", "types": ["restaurant", "food", "point_of_interest", "establishment"], "user_ratings_total": 1443, "vicinity": "25 West 40th Street, New York"}, {"business_status": "OPERATIONAL", "geometry": {"location": {"lat": 40.7592033, "lng": -73.99548290000001}, "viewport": {"northeast": {"lat": 40.76058938029149, "lng": -73.99426081970851}, "southwest": {"lat": 40.75789141970849, "lng": -73.99695878029152}}}, "icon": "https://maps.gstatic.com/mapfiles/place_api/icons/v1/png_71/lodging-71.png", "name": "YOTEL New York", "opening_hours": {"open_now": true}, "photos": [{"height": 2992, "html_attributions": ["<a href=\"https://maps.google.com/maps/contrib/100562224069470851995\">YOTEL New York</a>"], "photo_reference": "ATtYBwIRbalcJs-RSSt-Qmrwd0aD5Uucttfm0slg_uW7PO_UnAPE9EBj6Y3T-DW_j0FfjY9YaTYCCt2ZX01FWKLjVIg6rERZoCoHxMtsg_O4TIAG5d_joboAB1jypkKJeYusjtJosr8ajuVsDPdPL0NoI1ruMcqyAeRjyibXpkXiQ9GhdAca", "width": 3992}], "place_id": "ChIJpY9Tg01YwokRCr_aQpDrqgk", "plus_code": {"compound_code": "Q253+MR New York, NY, USA", "global_code": "87G8Q253+MR"}, "rating": 4.1, "reference": "ChIJpY9Tg01YwokRCr_aQpDrqgk", "scope": "GOOGLE", "types": ["lodging", "bar", "restaurant", "food", "point_of_interest", "establishment"], "user_ratings_total": 6294, "vicinity": "570 10th Avenue, New York"}, {"business_status": "OPERATIONAL", "geometry": {"location": {"lat": 40.7221457, "lng": -74.0046268}, "viewport": {"northeast": {"lat": 40.7233761802915, "lng": -74.00305536970849}, "southwest": {"lat": 40.7206782197085, "lng": -74.0057533302915}}}, "icon": "https://maps.gstatic.com/mapfiles/place_api/icons/v1/png_71/bar-71.png", "name": "Gilligan's", "opening_hours": {"open_now": false}, "photos": [{"height": 837, "html_attributions": ["<a href=\"https://maps.google.com/maps/contrib/114259629548611646358\">Gilligan&#39;s</a>"], "photo_reference": "ATtYBwIoeSgAZeJd3AOUluFtZdI1-RDuuGmKqowNkS-uj-qnDlfhZ4BFuWdziCYNUg7fk56rGsT8uHfPeTPCwYqYBV_frYgwxhG-zMiOZdq4VRCL-TcMPb5Og8ZtpbpXgG63JWqUoOxum1WwjYmxgszw6hc6Cdd2YuhDEuYngrEv8K6Nvbrr", "width": 1254}], "place_id": "ChIJH8Pll4pZwokRUyQh1WPYego", "plus_code": {"compound_code": "PXCW+V4 New York, NY, USA", "global_code": "87G7PXCW+V4"}, "price_level": 3, "rating": 4.2, "reference": "ChIJH8Pll4pZwokRUyQh1WPYego", "scope": "GOOGLE", "types": ["bar", "restaurant", "food", "point_of_interest", "establishment"], "user_ratings_total": 210, "vicinity": "310 West Broadway, New York"}, {"business_status": "CLOSED_TEMPORARILY", "geometry": {"location": {"lat": 40.7524823, "lng": -73.97743109999999}, "viewport": {"northeast": {"lat": 40.7538762302915, "lng": -73.97414764999999}, "southwest": {"lat": 40.7511782697085, "lng": -73.97974985}}}, "icon": "https://maps.gstatic.com/mapfiles/place_api/icons/v1/png_71/bar-71.png", "name": "Oyster", "permanently_closed": true, "photos": [{"height": 570, "html_attributions": ["<a href=\"https://maps.google.com/maps/contrib/118343971102377404666\">Oyster</a>"], "photo_reference": "ATtYBwLa6TyMVmK5pAR9W5QgNgJqf2OQEhFsapqwK2JCaniiLvhDOH5ZpihJ020RSwpoUElvMRvblwG4Ag-5nv5f8gD0s24AXlDM2apGb13beYiPUT_hzDUxm_zSy8JmfYEqIvh3Nkl9Bq39RAzy-Bh2XWtI2CwS6YK0HxChqIjsUcKTSI9z", "width": 855}], "place_id": "ChIJR9legAFZwokRa1s5gcFXPZw", "plus_code": {"compound_code": "Q22F+X2 New York, NY, USA", "global_code": "87G8Q22F+X2"}, "price_level": 2, "rating": 4.2, "reference": "ChIJR9legAFZwokRa1s5gcFXPZw", "scope": "GOOGLE", "types": ["bar", "restaurant", "food", "point_of_interest", "establishment"], "user_ratings_total": 2735, "vicinity": "89 East 42nd Street, New York"}, {"business_status": "OPERATIONAL", "geometry": {"location": {"lat": 40.72653280000001, "lng": -74.0021536}, "viewport": {"northeast": {"lat": 40.7279476802915, "lng": -74.00085531970849}, "southwest": {"lat": 40.7252497197085, "lng": -74.0035532802915}}}, "icon": "https://maps.gstatic.com/mapfiles/place_api/icons/v1/png_71/restaurant-71.png", "name": "The Dutch", "opening_hours": {"open_now": true}, "photos": [{"height": 2333, "html_attributions": ["<a href=\"https://maps.google.com/maps/contrib/114365317263368146080\">The Dutch</a>"], "photo_reference": "ATtYBwKpPxAIjBADhsdyr3v6gMaCyhAXULGaf4agx8yOIVus0TuO1csxsn6SQy-4eSu8hx1VX--8Ro4leGMU5Bb4E1SM-GmXQQhAEoZBvn0dsntQsh_rB5uwJEtkuSMSHl9lrE6oRJkZoxcioxHAvjq4y5LoNlWwd5jCYvZywIHYMgoDJiaL", "width": 3500}], "place_id": "ChIJ3RB9uI1ZwokRxCJXW-HpYZI", "plus_code": {"compound_code": "PXGX+J4 New York, NY, USA", "global_code": "87G7PXGX+J4"}, "price_level": 3, "rating": 4.3, "reference": "ChIJ3RB9uI1ZwokRxCJXW-HpYZI", "scope": "GOOGLE", "types": ["bar", "restaurant", "food", "point_of_interest", "establishment"], "user_ratings_total": 1484, "vicinity": "131 Sullivan Street, New York"}, {"business_status": "OPERATIONAL", "geometry": {"location": {"lat": 40.74149800000001, "lng": -73.9881482}, "viewport": {"northeast": {"lat": 40.7428469802915, "lng": -73.9867992197085}, "southwest": {"lat": 40.7401490197085, "lng": -73.98949718029151}}}, "icon": "https://maps.gstatic.com/mapfiles/place_api/icons/v1/png_71/restaurant-71.png", "name": "Shake Shack", "opening_hours": {"open_now": true}, "photos": [{"height": 3024, "html_attributions": ["<a href=\"https://maps.google.com/maps/contrib/113357207025138021296\">Tellon</a>"], "photo_reference": "ATtYBwJxBXx46DVyDHEgGhMCtOYn2NxnpWwQVDfIEjSrIQkG33YSuOTEwof0QfxWrtXENU-G5SzKCnZ9TxuMA9b-_39GYWSS5Fd5psheDExjovBbUb0EYFbD3oIDC-ncteDt67qOwrh_SuJK6QNBfRr7Q3mD5zgDMjTY6UFcNopXNwy96-cT", "width": 4032}], "place_id": "ChIJz1idlLxYwokRwl1Twi2KrIQ", "plus_code": {"compound_code": "P2R6+HP New York, NY, USA", "global_code": "87G8P2R6+HP"}, "price_level": 2, "rating": 4.5, "reference": "ChIJz1idlLxYwokRwl1Twi2KrIQ", "scope": "GOOGLE", "types": ["meal_delivery", "meal_takeaway", "restaurant", "food", "point_of_interest", "establishment"], "user_ratings_total": 5280, "vicinity": "E 23rd St and Madison Avenue Madison Square Park, New York"}, {"business_status": "OPERATIONAL", "geometry": {"location": {"lat": 40.7592186, "lng": -73.98536539999999}, "viewport": {"northeast": {"lat": 40.7606709302915, "lng": -73.98390821970848}, "southwest": {"lat": 40.7579729697085, "lng": -73.98660618029149}}}, "icon": "https://maps.gstatic.com/mapfiles/place_api/icons/v1/png_71/restaurant-71.png", "name": "Blue Fin", "opening_hours": {"open_now": true}, "photos": [{"height": 1192, "html_attributions": ["<a href=\"https://maps.google.com/maps/contrib/113254462009664387662\">Blue Fin</a>"], "photo_reference": "ATtYBwKu0OP0w_11pDQqpC3tSX45ZhZrdV3ubiM6HfWjFogOIgpENkyh0z1sFHlNhBkBProg64fQp2-BPmZOWlPCEik5z--0lovfnOovRQzg48ssWUVsOZ1JYR0sxQIfYM19k-IKlG2E_hYroaVb8gEM179sbBUzzsMd0C8bzxnJlbG_hYk5", "width": 2119}], "place_id": "ChIJzz-PyFVYwokRwp5z0KduYls", "plus_code": {"compound_code": "Q257+MV New York, NY, USA", "global_code": "87G8Q257+MV"}, "price_level": 3, "rating": 4.3, "reference": "ChIJzz-PyFVYwokRwp5z0KduYls", "scope": "GOOGLE", "types": ["restaurant", "food", "point_of_interest", "establishment"], "user_ratings_total": 842, "vicinity": "1567 Broadway, New York"}, {"business_status": "OPERATIONAL", "geometry": {"location": {"lat": 40.73292, "lng": -73.98588409999999}, "viewport": {"northeast": {"lat": 40.73420288029149, "lng": -73.9845835197085}, "southwest": {"lat": 40.73150491970849, "lng": -73.9872814802915}}}, "icon": "https://maps.gstatic.com/mapfiles/place_api/icons/v1/png_71/restaurant-71.png", "name": "Beyond Sushi", "opening_hours": {"open_now": true}, "photos": [{"height": 3427, "html_attributions": ["<a href=\"https://maps.google.com/maps/contrib/107302337984790821085\">Beyond Sushi</a>"], "photo_reference": "ATtYBwKBygk8z7Mn35_GFWumCOGxilFIMbe40OzM3XbeJVpItMsHV4hnFj8xnKQfRnNl9fXMa0a78qekNcsywuxfkMe2MFRGZeD4o0YFcg5l_wz5z5hEOIdwyw-TvxAOq_V-0zD7c3qzjjQ3qFuOpnSuArYTBk5uAt8LtY52OZCYfKSDSzQL", "width": 3024}], "place_id": "ChIJM8a5-J5ZwokRZDE8G2tHuhg", "plus_code": {"compound_code": "P2M7+5J New York, NY, USA", "global_code": "87G8P2M7+5J"}, "price_level": 2, "rating": 4.6, "reference": "ChIJM8a5-J5ZwokRZDE8G2tHuhg", "scope": "GOOGLE", "types": ["restaurant", "food", "point_of_interest", "establishment"], "user_ratings_total": 517, "vicinity": "229 East 14th Street, New York"}, {"business_status": "OPERATIONAL", "geometry": {"location": {"lat": 40.777565, "lng": -74.4450073}, "viewport": {"northeast": {"lat": 40.7791420302915, "lng": -74.44393721970849}, "southwest": {"lat": 40.7764440697085, "lng": -74.4466351802915}}}, "icon": "https://maps.gstatic.com/mapfiles/place_api/icons/v1/png_71/lodging-71.png", "name": "The Madison Hotel Morristown, NJ", "opening_hours": {"open_now": true}, "photos": [{"height": 4912, "html_attributions": ["<a href=\"https://maps.google.com/maps/contrib/112462195515654225878\">The Madison Hotel Morristown, NJ</a>"], "photo_reference": "ATtYBwItxX3zU6fE2JqYJZ_ooFBWh3Vf0G7jRdY8n3YHKzzJ2Qzplu180mUIcbOwF-QIiyWZzge7Bz0MV4TghHEJSrnhZPSYgzJdEvQVvlsh_txQR3iMChxSmbG8fyDmxxiI1aFwmHS8OsIMtGWjPVRRVtBTekjSXa8W_PSrSeV1oEkgS2zG", "width": 7360}], "place_id": "ChIJHftI9talw4kRmWCxey2gEQk", "plus_code": {"compound_code": "QHH3+2X Morristown, NJ, USA", "global_code": "87G7QHH3+2X"}, "rating": 4.4, "reference": "ChIJHftI9talw4kRmWCxey2gEQk", "scope": "GOOGLE", "types": ["lodging", "bar", "restaurant", "food", "point_of_interest", "establishment"], "user_ratings_total": 1581, "vicinity": "1 Convent Road, Morristown"}, {"business_status": "OPERATIONAL", "geometry": {"location": {"lat": 40.758432, "lng": -73.98921899999999}, "viewport": {"northeast": {"lat": 40.7597277802915, "lng": -73.98775841970848}, "southwest": {"lat": 40.7570298197085, "lng": -73.99045638029149}}}, "icon": "https://maps.gstatic.com/mapfiles/place_api/icons/v1/png_71/restaurant-71.png", "name": "Shake Shack", "opening_hours": {"open_now": true}, "photos": [{"height": 2592, "html_attributions": ["<a href=\"https://maps.google.com/maps/contrib/109780063811304933686\">Shake Shack</a>"], "photo_reference": "ATtYBwJMLTRbqWkfBOZvpLgy5aKW4yx0kiIt8c2ZJVNdMzA8OgWP1wZZ9Enq7O_WF4_kJ0AHRzMcX4Hf5CU1JizmC0Ji1rY-a1Y7HanAElnIkVX-0-b57NRghSkh5taYF8YEdLo8RetU17r4oLwNPHAX2jlcE1F9Ke_Z_hSDzeEM6-EYf-pW", "width": 3888}], "place_id": "ChIJhXAgf1NYwokRBzdqc2TRX_I", "plus_code": {"compound_code": "Q256+98 New York, NY, USA", "global_code": "87G8Q256+98"}, "price_level": 2, "rating": 4.4, "reference": "ChIJhXAgf1NYwokRBzdqc2TRX_I", "scope": "GOOGLE", "types": ["meal_delivery", "meal_takeaway", "restaurant", "food", "point_of_interest", "establishment"], "user_ratings_total": 11465, "vicinity": "691 8th Avenue, New York"}, {"business_status": "OPERATIONAL", "geometry": {"location": {"lat": 40.7292083, "lng": -73.98441500000001}, "viewport": {"northeast": {"lat": 40.7305225302915, "lng": -73.98294426970851}, "southwest": {"lat": 40.7278245697085, "lng": -73.98564223029152}}}, "icon": "https://maps.gstatic.com/mapfiles/place_api/icons/v1/png_71/restaurant-71.png", "name": "Momofuku Noodle Bar", "opening_hours": {"open_now": false}, "photos": [{"height": 1365, "html_attributions": ["<a href=\"https://maps.google.com/maps/contrib/105097977455458910656\">Momofuku Noodle Bar</a>"], "photo_reference": "ATtYBwK4IpG3DQywnj1mXSng32JBrIxSZyfCCcVD5z67qVOLeu4IFCyEZGqQHfpb6AhCwbPN4kyW_Gp3ypZ2IAZjNV17aY152aweH_MWAMUQB2MmrjUBXJbQLXDK_LJAKglvgtXVw21VOcVHs_T21HHBPR4cK6iMZkEQP91CBjDVYobzFmNS", "width": 2048}], "place_id": "ChIJkXQ3_INZwokRE74ZvG46Jjc", "plus_code": {"compound_code": "P2H8+M6 New York, NY, USA", "global_code": "87G8P2H8+M6"}, "price_level": 2, "rating": 4.5, "reference": "ChIJkXQ3_INZwokRE74ZvG46Jjc", "scope": "GOOGLE", "types": ["restaurant", "food", "point_of_interest", "establishment"], "user_ratings_total": 4122, "vicinity": "171 1st Avenue, New York"}, {"business_status": "OPERATIONAL", "geometry": {"location": {"lat": 40.74348910000001, "lng": -73.8876429}, "viewport": {"northeast": {"lat": 40.74489498029151, "lng": -73.88630876970849}, "southwest": {"lat": 40.74219701970851, "lng": -73.88900673029151}}}, "icon": "https://maps.gstatic.com/mapfiles/place_api/icons/v1/png_71/restaurant-71.png", "name": "Ayada", "opening_hours": {"open_now": true}, "photos": [{"height": 3000, "html_attributions": ["<a href=\"https://maps.google.com/maps/contrib/108148368557561806989\">Fran\u00e7ois Dang Ngoc</a>"], "photo_reference": "ATtYBwIKSPkN0MP9GepNXQFlBmohKvgId66iohAYGlQLi03JNddWwEdM7nMrzZTP1MFjomKmy6TdwG45XbKzgu2HLW5g54-iRUFFBLUzH4uSGjYtuEKsnkBqpwRuVxxtkCWbEMggjgezUbaBgetEF2q9HXR4uV1ZwNcR7Fjt7nGsKAqE1Zwf", "width": 4000}], "place_id": "ChIJpROekqpfwokRxzDFY0gQKP8", "plus_code": {"compound_code": "P4V6+9W New York, NY, USA", "global_code": "87G8P4V6+9W"}, "price_level": 2, "rating": 4.5, "reference": "ChIJpROekqpfwokRxzDFY0gQKP8", "scope": "GOOGLE", "types": ["restaurant", "food", "point_of_interest", "establishment"], "user_ratings_total": 1117, "vicinity": "7708 Woodside Avenue, Queens"}, {"business_status": "OPERATIONAL", "geometry": {"location": {"lat": 40.72157809999999, "lng": -73.9956856}, "viewport": {"northeast": {"lat": 40.7229276802915, "lng": -73.99423971970849}, "southwest": {"lat": 40.7202297197085, "lng": -73.99693768029151}}}, "icon": "https://maps.gstatic.com/mapfiles/place_api/icons/v1/png_71/restaurant-71.png", "name": "Lombardi's", "opening_hours": {"open_now": true}, "photos": [{"height": 1728, "html_attributions": ["<a href=\"https://maps.google.com/maps/contrib/100766269913572807417\">Lombardi&#39;s Pizza</a>"], "photo_reference": "ATtYBwJNdD1YTSsNEQCMioqynbk3goSMoG7h-2_v95fCkP3pBbxAWvl_WYZtwmVwWi8i34fSyZbncH9NrSL-qgSkuEuvj2uOBrxEwRkVGFsb2-iOJVZQ2delRLZb6Dzd7kwuR9IlmYGctgKCSacaB0IGTq26LMpWLNDHbaBKz2a7O2pc5E5q", "width": 2592}], "place_id": "ChIJp-cWE4pZwokRmUI8_BIF8dg", "plus_code": {"compound_code": "P2C3+JP New York, NY, USA", "global_code": "87G8P2C3+JP"}, "price_level": 2, "rating": 4.1, "reference": "ChIJp-cWE4pZwokRmUI8_BIF8dg", "scope": "GOOGLE", "types": ["meal_delivery", "meal_takeaway", "restaurant", "food", "point_of_interest", "establishment"], "user_ratings_total": 6462, "vicinity": "32 Spring Street, New York"}, {"business_status": "OPERATIONAL", "geometry": {"location": {"lat": 40.72266799999999, "lng": -73.99822979999999}, "viewport": {"northeast": {"lat": 40.72401698029149, "lng": -73.9968808197085}, "southwest": {"lat": 40.7213190197085, "lng": -73.9995787802915}}}, "icon": "https://maps.gstatic.com/mapfiles/place_api/icons/v1/png_71/restaurant-71.png", "name": "Balthazar", "opening_hours": {"open_now": true}, "photos": [{"height": 1365, "html_attributions": ["<a href=\"https://maps.google.com/maps/contrib/117724873759090509205\">Balthazar</a>"], "photo_reference": "ATtYBwIydJPqHJS1QDzO--eAmSAtetvxun56I1MTs6viucW6PBE43Xrxeb6jMUyUR-vdeULbZi1EZF6Orvld9ZFAaj-7Se87CvkMraIJ_MmNuCY6MOPLvAAPPfxOubvHGD5ThauBPopBOaUAlZJiyQjp1ZEqsJhdv5pkRECNQmnyZkXX2IgP", "width": 2048}], "place_id": "ChIJt7fMLIlZwokRCRtM9bNDg78", "plus_code": {"compound_code": "P2F2+3P New York, NY, USA", "global_code": "87G8P2F2+3P"}, "price_level": 3, "rating": 4.4, "reference": "ChIJt7fMLIlZwokRCRtM9bNDg78", "scope": "GOOGLE", "types": ["bakery", "restaurant", "food", "point_of_interest", "store", "establishment"], "user_ratings_total": 4480, "vicinity": "80 Spring Street, New York"}], "status": "OK"}